[
    {
        "id": 472045,
        "name": "Voronezh",
        "state": "",
        "country": "RU",
        "coord": {
            "lon": 39.169998,
            "lat": 51.666389
        }
    },
    {
        "id": 472757,
        "name": "Volgograd",
        "state": "",
        "country": "RU",
        "coord": {
            "lon": 44.501839,
            "lat": 48.719391
        }
    },
    {
        "id": 479561,
        "name": "Ufa",
        "state": "",
        "country": "RU",
        "coord": {
            "lon": 56.037498,
            "lat": 54.775002
        }
    },
    {
        "id": 498817,
        "name": "Saint Petersburg",
        "state": "",
        "country": "RU",
        "coord": {
            "lon": 30.264168,
            "lat": 59.894444
        }
    },
    {
        "id": 499099,
        "name": "Samara",
        "state": "",
        "country": "RU",
        "coord": {
            "lon": 50.150002,
            "lat": 53.200001
        }
    },
    {
        "id": 511196,
        "name": "Perm",
        "state": "",
        "country": "RU",
        "coord": {
            "lon": 56.285519,
            "lat": 58.01741
        }
    },
    {
        "id": 524901,
        "name": "Moscow",
        "state": "",
        "country": "RU",
        "coord": {
            "lon": 37.615555,
            "lat": 55.75222
        }
    },
    {
        "id": 551487,
        "name": "Kazan",
        "state": "",
        "country": "RU",
        "coord": {
            "lon": 49.122139,
            "lat": 55.788738
        }
    },
    {
        "id": 1486209,
        "name": "Yekaterinburg",
        "state": "",
        "country": "RU",
        "coord": {
            "lon": 60.612499,
            "lat": 56.857498
        }
    },
    {
        "id": 1496153,
        "name": "Omsk",
        "state": "",
        "country": "RU",
        "coord": {
            "lon": 73.400002,
            "lat": 55.0
        }
    },
    {
        "id": 1496747,
        "name": "Novosibirsk",
        "state": "",
        "country": "RU",
        "coord": {
            "lon": 82.934441,
            "lat": 55.041111
        }
    },
    {
        "id": 1502026,
        "name": "Krasnoyarsk",
        "state": "",
        "country": "RU",
        "coord": {
            "lon": 92.791672,
            "lat": 56.00972
        }
    },
    {
        "id": 1508291,
        "name": "Chelyabinsk",
        "state": "",
        "country": "RU",
        "coord": {
            "lon": 61.429722,
            "lat": 55.154442
        }
    },
    {
        "id": 2013348,
        "name": "Vladivostok",
        "state": "",
        "country": "RU",
        "coord": {
            "lon": 131.873535,
            "lat": 43.105621
        }
    },
    {
        "id": 2023469,
        "name": "Irkutsk",
        "state": "",
        "country": "RU",
        "coord": {
            "lon": 104.296387,
            "lat": 52.297779
        }
    }
]